,latitude,longitude,address,ward_id
0,18.91820679616992,72.82466783514951,"Captain Prakash Pethe Marg, A Ward, Zone 1, Mumbai, Mumbai City, Maharashtra, 400005, India",A
1,18.96328096600007,72.82193869700006,"Patthe Bapurao Marg (Falkland Road), Chikalwadi, D Ward, Zone 1, Mumbai, Mumbai City, Maharashtra, 400004, India",D
2,18.97121786300005,72.81615550800007,"Kappawala Fire Temple, Awabai Kashinath Street, Cowasji Jehangir Colony, D Ward, Zone 1, Mumbai, Mumbai City, Maharashtra, 400034, India",D
3,18.965689033000046,72.82384359100007,"R S Nimkar Marg, Chikalwadi, D Ward, Zone 1, Mumbai, Mumbai City, Maharashtra, 400004, India",D
4,18.963369322000062,72.82348913300007,"Chikalwadi, D Ward, Zone 1, Mumbai, Mumbai City, Maharashtra, 400004, India",D
5,18.96102937556583,72.82614395453689,"Trimbak Parshuram Street, C Ward, Zone 1, Mumbai, Mumbai City, Maharashtra, 400004, India",D
6,18.97920903427471,72.82740639624978,"E Ward, Zone 1, Mumbai, Mumbai City, Maharashtra, 400027, India",E
7,18.96552988800242,72.82531287437564,"8th Lane, E Ward, Zone 1, Mumbai, Mumbai City, Maharashtra, 400004, India",E
8,18.96971264165106,72.84194449407565,"E Ward, Zone 1, Mumbai, Mumbai City, Maharashtra, 400008, India",E
9,18.96280629630638,72.83180850194071,"E Ward, Zone 1, Mumbai, Mumbai City, Maharashtra, 400004, India",E
10,19.00588495770202,72.85492723138128,"Sewri Cross Road, Sadbhavana Nagar, F/S Ward, Zone 2, Mumbai, Mumbai City, Maharashtra, 400033, India",F/S
11,19.0055033555024,72.85497499323805,"Sewri Cross Road, Sadbhavana Nagar, F/S Ward, Zone 2, Mumbai, Mumbai City, Maharashtra, 400033, India",F/S
12,19.017987179000045,72.81980024300003,"G/S Ward, Zone 2, Mumbai, Mumbai City, Maharashtra, 400030, India",G/S
13,19.005198476000032,72.82053658800004,"SIEMENS Information Systems Ltd., H R Divekar Marg, BDD Chawl, G/S Ward, Zone 2, Mumbai, Mumbai City, Maharashtra, 400030, India",G/S
14,19.00195741300007,72.81694836500003,"ESIS Hospital WORLI, Ganpat Jadhav Marg, BDD Chawl, G/S Ward, Zone 2, Mumbai, Mumbai City, Maharashtra, 400018, India",G/S
15,19.001709748000053,72.81849399200007,"BDD Chawl, G/S Ward, Zone 2, Mumbai, Mumbai City, Maharashtra, 40013, India",G/S
16,19.018673800000045,72.81916850800008,"V B Worlikar Marg, G/S Ward, Zone 2, Mumbai, Mumbai City, Maharashtra, 400030, India",G/S
17,19.001004932000058,72.81754334100003,"BDD Chawl, G/S Ward, Zone 2, Mumbai, Mumbai City, Maharashtra, 40013, India",G/S
18,19.01835715900006,72.81840243300007,"G/S Ward, Zone 2, Mumbai, Mumbai City, Maharashtra, 400030, India",G/S
19,19.01796199100005,72.81869763300006,"G/S Ward, Zone 2, Mumbai, Mumbai City, Maharashtra, 400030, India",G/S
20,19.01787524200006,72.81815676500008,"G/S Ward, Zone 2, Mumbai, Mumbai City, Maharashtra, 400030, India",G/S
21,19.01939522200007,72.81872934700004,"V B Worlikar Marg, G/S Ward, Zone 2, Mumbai, Mumbai City, Maharashtra, 400030, India",G/S
22,19.01952039100007,72.81786931500005,"G/S Ward, Zone 2, Mumbai, Mumbai City, Maharashtra, 400030, India",G/S
23,19.019012157000077,72.81788612000008,"G/S Ward, Zone 2, Mumbai, Mumbai City, Maharashtra, 400030, India",G/S
24,19.0097346,72.8255543,"Century Mills, Sadanand Hasu Tandel Marg, BDD Chawl, G/S Ward, Zone 2, Mumbai, Mumbai City, Maharashtra, 400030, India",G/S
25,19.02163552269838,72.81812809953696,"G/S Ward, Zone 2, Mumbai, Mumbai City, Maharashtra, 400030, India",G/S
26,19.0185886,72.8188249,"V B Worlikar Marg, G/S Ward, Zone 2, Mumbai, Mumbai City, Maharashtra, 400030, India",G/S
27,19.01747046395444,72.8202652293119,"Worli Village, V B Worlikar Marg, G/S Ward, Zone 2, Mumbai, Mumbai City, Maharashtra, 400030, India",G/S
28,19.01751015045863,72.82032885506361,"Worli Village, V B Worlikar Marg, G/S Ward, Zone 2, Mumbai, Mumbai City, Maharashtra, 400030, India",G/S
29,19.01751015045863,72.82032885506361,"Worli Village, V B Worlikar Marg, G/S Ward, Zone 2, Mumbai, Mumbai City, Maharashtra, 400030, India",G/S
30,19.01728557984215,72.82028873932421,"Worli Village, V B Worlikar Marg, G/S Ward, Zone 2, Mumbai, Mumbai City, Maharashtra, 400030, India",G/S
31,19.01848536837272,72.81933247601101,"G/S Ward, Zone 2, Mumbai, Mumbai City, Maharashtra, 400030, India",G/S
32,18.99259722335193,72.81860268592595,"Jeejamata Nagar, G/S Ward, Zone 2, Mumbai, Mumbai City, Maharashtra, 400018, India",G/S
33,18.99275572524642,72.81922314393609,"Jeejamata Nagar, G/S Ward, Zone 2, Mumbai, Mumbai City, Maharashtra, 400018, India",G/S
34,18.99259722335193,72.81860268592595,"Jeejamata Nagar, G/S Ward, Zone 2, Mumbai, Mumbai City, Maharashtra, 400018, India",G/S
35,18.99230948632588,72.81832995692092,"Jeejamata Nagar, G/S Ward, Zone 2, Mumbai, Mumbai City, Maharashtra, 400018, India",G/S
36,18.99288364253429,72.81993259850987,"Jeejamata Nagar, G/S Ward, Zone 2, Mumbai, Mumbai City, Maharashtra, 400018, India",G/S
37,19.02170972486743,72.81807286522107,"Koliwada, G/S Ward, Zone 2, Mumbai, Mumbai City, Maharashtra, 400025, India",G/S
38,19.02170022182498,72.81808054625674,"Koliwada, G/S Ward, Zone 2, Mumbai, Mumbai City, Maharashtra, 400025, India",G/S
39,19.014363889000037,72.82412777800005,"Chemist, Old Prabhadevi Marg, G/S Ward, Zone 2, Mumbai, Mumbai City, Maharashtra, 400025, India",G/S
40,18.99245833300006,72.81870000000004,"Jeejamata Nagar, G/S Ward, Zone 2, Mumbai, Mumbai City, Maharashtra, 400018, India",G/S
41,19.02296329441896,72.8707374045943,"Sangam Nagar, F/N Ward, Zone 2, Mumbai, Mumbai City, Maharashtra, 400037, India",F/N
42,19.02804451927894,72.87339361227305,"Bharatiya Kamala Nagar, F/N Ward, Zone 2, Bharathiya Kamala Nagar, Mumbai City, Maharashtra, 400037, India",F/N
43,19.0276777,72.87024559999999,"CGS Colony, F/N Ward, Zone 2, Mumbai, Mumbai City, Maharashtra, 400037, India",F/N
44,19.02245524219123,72.87035876203905,"Sangam Nagar, F/N Ward, Zone 2, Mumbai, Mumbai City, Maharashtra, 400037, India",F/N
45,19.01594201636252,72.86459743933852,"Korba Mithagar, F/N Ward, Zone 2, Mumbai, Mumbai City, Maharashtra, 400011, India",F/N
46,19.041691972000024,72.85052482000003,"Dharavi, Zone 2, Mumbai, Mumbai City, Maharashtra, BOUNDARY, India",G/N
47,19.047690380000063,72.85787174600006,"Dharavi, Zone 2, Mumbai, Mumbai City, Maharashtra, 400017, India",G/N
48,19.039267403000053,72.85491353500004,"Machine Shop, 90 Feet Road, Dharavi, Zone 2, Mumbai, Mumbai City, Maharashtra, BOUNDARY, India",G/N
49,19.04372482200006,72.85004247900008,"Rizwan Raza, Dharavi Main Road, Dharavi, Zone 2, Mumbai, Mumbai City, Maharashtra, 400017, India",G/N
50,19.0414773,72.8484537,"Jasmine Mill Road, Dharavi, G/N Ward, Zone 2, Mumbai, Mumbai City, Maharashtra, BOUNDARY, India",G/N
51,19.07161731800005,72.91683116200005,"Bhairav Vidyalay, Kamaraj Nagar Road, Kamaraj Nagar, N Ward, Zone 6, Mumbai, Mumbai Suburban, Maharashtra, 400044, India",N
52,19.095314477000045,72.89974726700007,"Narayan Nagar, L Ward, Zone 5, Mumbai, Mumbai Suburban, Maharashtra, 400086, India",N
53,19.095790587000067,72.90520535100006,"Varsha Nagar, N Ward, Zone 6, Mumbai, Mumbai Suburban, Maharashtra, 400086, India",N
54,19.096917292000057,72.90261551100008,"Jagdusha Nagar, N Ward, Zone 6, Mumbai, Mumbai Suburban, Maharashtra, 400086, India",N
55,19.09547255500007,72.90107516000006,"Ram Joshi Marg, Azad Nagar, N Ward, Zone 6, Mumbai, Mumbai Suburban, Maharashtra, 400086, India",N
56,19.097618392000072,72.90351675400007,"Jagdusha Nagar, N Ward, Zone 6, Mumbai, Mumbai Suburban, Maharashtra, 400086, India",N
57,19.104374972000073,72.91610807900008,"Varsha Nagar, N Ward, Zone 6, Mumbai, Mumbai Suburban, Maharashtra, 400079, India",N
58,19.095527121000032,72.90004929700007,"R B Kadam Road, Azad Nagar, N Ward, Zone 6, Mumbai, Mumbai Suburban, Maharashtra, 400086, India",N
59,19.095919700000024,72.90551690000007,"Varsha Nagar, N Ward, Zone 6, Mumbai, Mumbai Suburban, Maharashtra, 400086, India",N
60,19.099685300000033,72.90289370000005,"Azad Nagar, N Ward, Zone 6, Mumbai, Mumbai Suburban, Maharashtra, 400086, India",N
61,19.093636238000045,72.90381498400006,"jalaram mandir, R B Kadam Road, Azad Nagar, N Ward, Zone 6, Mumbai, Mumbai Suburban, Maharashtra, 400086, India",N
62,19.09933250000006,72.90286780000008,"Jagdusha Nagar, N Ward, Zone 6, Mumbai, Mumbai Suburban, Maharashtra, 400086, India",N
63,19.102050000000077,72.90877440000008,"Varsha Nagar, N Ward, Zone 6, Mumbai, Mumbai Suburban, Maharashtra, 400079, India",N
64,19.074525528000038,72.91376147700004,"Kamaraj Nagar, N Ward, Zone 6, Mumbai, Mumbai Suburban, Maharashtra, 400077, India",N
65,19.099273699000037,72.91670991800004,"R City Phase One, Road Number 6, Amrut Nagar, N Ward, Zone 6, Mumbai, Mumbai Suburban, Maharashtra, 400075, India",N
66,19.072405400000036,72.91409200000004,"Kamaraj Nagar Road, Kamaraj Nagar, N Ward, Zone 6, Mumbai, Mumbai Suburban, Maharashtra, 400044, India",N
67,19.09033370900005,72.89895949700008,"Azad Nagar, N Ward, Zone 6, Mumbai, Mumbai Suburban, Maharashtra, 400086, India",N
68,19.16279006700006,72.93112210400005,"Tembhipada Road, T Ward, Zone 6, Mumbai, Mumbai Suburban, Maharashtra, 400 078, India",S
69,19.12836161100006,72.93512059200003,"Police Station Road, Nutan Nagar, S Ward, Zone 6, Mumbai, Mumbai Suburban, Maharashtra, 400042, India",S
70,19.124300408000067,72.91806422900004,"Tirandaz, S Ward, Zone 6, Mumbai, Mumbai Suburban, Maharashtra, 40076, India",S
71,19.115775391000057,72.93326254600004,"S Ward, Zone 6, Mumbai, Mumbai Suburban, Maharashtra, 400083, India",S
72,19.13608530600004,72.93850292400003,"auto parking road, Kanjur Village, S Ward, Zone 6, Mumbai, Mumbai Suburban, Maharashtra, 400042, India",S
73,19.160508221000043,72.92951270200007,"Tembhipada Road, T Ward, Zone 6, Mumbai, Mumbai Suburban, Maharashtra, 400 078, India",S
74,19.16344982000004,72.93592354700007,"Hussainia Chowk, , Sonapur, S Ward, Zone 6, Mumbai, Mumbai Suburban, Maharashtra, 400082, India",S
75,19.161125259000073,72.92957415400008,"Khindipada Viewpoint, Duck Line Road, T Ward, Zone 6, Mumbai, Mumbai Suburban, Maharashtra, 400 078, India",S
76,19.140058533000058,72.92969351400006,"Jamil Nagar, S Ward, Zone 6, Mumbai, Mumbai Suburban, Maharashtra, 400042, India",S
77,19.15823098000004,72.93480833000007,"Sonapur, S Ward, Zone 6, Mumbai, Mumbai Suburban, Maharashtra, 400 078, India",S
78,19.163992113000063,72.93615200100004,"T Ward, Zone 6, Mumbai, Mumbai Suburban, Maharashtra, 400082, India",S
79,19.15105310000007,72.93590310000008,"Gaon Devi mandir, Milind Nagar, S Ward, Zone 6, Mumbai, Mumbai Suburban, Maharashtra, 400078, India",S
80,19.158754357000078,72.92865383400004,"Duck Line Road, T Ward, Zone 6, Mumbai, Mumbai Suburban, Maharashtra, 400 078, India",S
81,19.13117905000007,72.93502045000008,"Aniket Nursing Home, Veer Savarkar Road, Chhatrapati Nagar, S Ward, Zone 6, Mumbai, Mumbai Suburban, Maharashtra, 400042, India",S
82,19.124386924000078,72.91879652000006,"Ramabai Ambedkar Nagar, S Ward, Zone 6, Mumbai, Mumbai Suburban, Maharashtra, 40076, India",S
83,19.11762580000004,72.93276860000003,"S Ward, Zone 6, Mumbai, Mumbai Suburban, Maharashtra, 400083, India",S
84,19.135759767000025,72.93830499300003,"auto parking road, Kanjur Village, S Ward, Zone 6, Mumbai, Mumbai Suburban, Maharashtra, 400042, India",S
85,19.12014080000006,72.92926630000005,"S Ward, Zone 6, Mumbai, Mumbai Suburban, Maharashtra, 400083, India",S
86,19.165588204000073,72.95062667900004,"Indira Nagar, T Ward, Zone 6, Mumbai, Mumbai Suburban, Maharashtra, 40081, India",T
87,19.166010079000046,72.93510986200005,"Phase-II, Goregaon Mulund Link Road, T Ward, Zone 6, Mumbai, Mumbai Suburban, Maharashtra, 400082, India",T
88,19.166543250000075,72.95051435000005,"Suyog Hospital and Iccu, Pandit Jawaharlal Nehru Road, Vaithara Nagar, T Ward, Zone 6, Mumbai, Mumbai Suburban, Maharashtra, 400080, India",T
89,19.240900619000058,72.85999383000006,"Shivaji Nagar, R/N Ward, Zone 4, Mumbai, Mumbai Suburban, Maharashtra, 400068, India",R/N
90,19.257301175000066,72.87505035500004,"Vaishali Nagar, R/N Ward, Zone 4, Mumbai, Mumbai Suburban, Maharashtra, 401202, India",R/N
91,19.255452959000024,72.86739020700003,"Dyanmudra, C S Link Road, Vaishali Nagar, R/N Ward, Zone 4, Mumbai, Mumbai Suburban, Maharashtra, 400068, India",R/N
92,19.239500216000067,72.86063629500006,"D N Dube Road, Shivaji Nagar, R/N Ward, Zone 4, Mumbai, Mumbai Suburban, Maharashtra, 400068, India",R/N
93,19.255298550000077,72.87584095000005,"Vaishali Nagar, R/N Ward, Zone 4, Mumbai, Mumbai Suburban, Maharashtra, 401202, India",R/N
94,19.256246300000043,72.86491405000004,"Vaishali Nagar, R/N Ward, Zone 4, Mumbai, Mumbai Suburban, Maharashtra, 400068, India",R/N
95,19.051796358000047,72.92460261200006,"Deonar Colony, M/E Ward, Zone 5, Mumbai, Mumbai Suburban, Maharashtra, 400088, India",M/E
96,19.038646121000056,72.94986531200004,"dosti hotel, Balaji Mandir Road, Payal Pada, M/E Ward, Zone 5, Mumbai, Mumbai Suburban, Maharashtra, 400088, India",M/E
97,19.063615379000055,72.92666335800004,"Plot No.20, M/E Ward, Zone 5, Mumbai, Mumbai Suburban, Maharashtra, 400043, India",M/E
98,19.04327898100007,72.90931475200006,"Shivneri Nagar, M/E Ward, Zone 5, Mumbai, Mumbai Suburban, Maharashtra, 400088, India",M/E
99,19.034097449000058,72.89680688200008,"M/W Ward, Zone 5, Mumbai, Mumbai Suburban, Maharashtra, 400074, India",M/E
100,19.067503986000077,72.92123974200007,"New Gautam Nagar, M/E Ward, Zone 5, Mumbai, Mumbai Suburban, Maharashtra, 400043, India",M/E
101,19.06481929100005,72.92377942100006,"Plot no.19, M/E Ward, Zone 5, Mumbai, Mumbai Suburban, Maharashtra, 400043, India",M/E
102,19.06097900000003,72.92562700000008,"Sanjay Nagar I, M/E Ward, Zone 5, Mumbai, Mumbai Suburban, Maharashtra, 400043, India",M/E
103,19.06380500000006,72.92309720000003,"Road Number 5, Milan Colony, M/E Ward, Zone 5, Mumbai, Mumbai Suburban, Maharashtra, 400043, India",M/E
104,19.06461470000005,72.92438060000006,"Plot no.19, M/E Ward, Zone 5, Mumbai, Mumbai Suburban, Maharashtra, 400043, India",M/E
105,19.056939889000034,72.91423245000004,"Deonar Road, Tata Nagar, M/E Ward, Zone 5, Mumbai, Mumbai Suburban, Maharashtra, 400044, India",M/E
106,19.033516000000077,72.89617030000005,"M/W Ward, Zone 5, Mumbai, Mumbai Suburban, Maharashtra, 400074, India",M/E
107,19.035593864000077,72.89408415300005,"Maraoli Village, M/W Ward, Zone 5, Mumbai, Mumbai Suburban, Maharashtra, 400074, India",M/W
108,19.062435392000054,72.90668143500005,"panjabi chull, Panjabi chull, Rahul Nagar, M/W Ward, Zone 5, Mumbai, Mumbai Suburban, Maharashtra, 400089, India",M/W
109,19.03067654800003,72.89648767400007,"Ramakrishna Chemburkar Marg (Ghatkopar Mahul Road), Collector Colony, M/W Ward, Zone 5, Mumbai, Mumbai Suburban, Maharashtra, 400074, India",M/W
110,19.061277731000075,72.90787836400006,"janta raod, Adarsh Nagar, M/W Ward, Zone 5, Mumbai, Mumbai Suburban, Maharashtra, 400089, India",M/W
111,19.04678400000006,72.89541220000007,"Collector Colony, M/W Ward, Zone 5, Mumbai, Mumbai Suburban, Maharashtra, 400071, India",M/W
112,19.031168765000075,72.89623193800003,"Ramakrishna Chemburkar Marg (Ghatkopar Mahul Road), Collector Colony, M/W Ward, Zone 5, Mumbai, Mumbai Suburban, Maharashtra, 400074, India",M/W
113,19.044386648000057,72.88954491700008,"Collector Colony, M/W Ward, Zone 5, Mumbai, Mumbai Suburban, Maharashtra, 400074, India",M/W
114,19.061279200000058,72.90818430000007,"P.L. Lokhande Marg, Adarsh Nagar, M/W Ward, Zone 5, Mumbai, Mumbai Suburban, Maharashtra, 400044, India",M/W
115,19.051802500000065,72.88662380000005,"Chembur Colony, M/W Ward, Zone 5, Mumbai, Mumbai Suburban, Maharashtra, 400071, India",M/W
116,19.080310712000028,72.85698821900007,"Vakola Village, H/E Ward, Zone 3, Mumbai, Mumbai Suburban, Maharashtra, 400098, India",H/E
117,19.075787209000055,72.86058542000006,"Durga Maternity and Surgical Nursing Home, Vidya Nagari Marg, Mathuradas Colony, H/E Ward, Zone 3, Mumbai, Mumbai Suburban, Maharashtra, 400098, India",H/E
118,19.07834762300007,72.84564794800008,"V. N. Desai Municipal Hospital, Road No 11, Sen Nagar, H/E Ward, Zone 3, Mumbai, Mumbai Suburban, Maharashtra, 400055, India",H/E
119,19.055734882000024,72.84233838600005,"A K Marg (Station Road), Garib Nagar, H/W Ward, Zone 3, Mumbai, Mumbai Suburban, Maharashtra, 40051, India",H/E
120,19.058336590000067,72.84446533900007,"Gandhi Nagar, H/E Ward, Zone 3, Mumbai, Mumbai Suburban, Maharashtra, 40051, India",H/E
121,19.077064403000065,72.84410425200008,"Prerana Nursing Home, Road No 4, Hanuman Tekdi, H/E Ward, Zone 3, Mumbai, Mumbai Suburban, Maharashtra, 400055, India",H/E
122,19.06253580200007,72.85837049100007,"H/E Ward, Zone 3, Mumbai, Mumbai Suburban, Maharashtra, 400 051, India",H/E
123,19.07747605800006,72.84585164400005,"Dauri Nagar, H/E Ward, Zone 3, Mumbai, Mumbai Suburban, Maharashtra, 400055, India",H/E
124,19.057122126000024,72.84257840900005,"Behram Pada, H/E Ward, Zone 3, Mumbai, Mumbai Suburban, Maharashtra, 40051, India",H/E
125,19.06255622300006,72.84389299600008,"Shivajinagar, H/E Ward, Zone 3, Mumbai, Mumbai Suburban, Maharashtra, 40051, India",H/E
126,19.079634501000044,72.84805043900008,"Jawaharlal Nehru Road, Vakola, H/E Ward, Zone 3, Mumbai, Mumbai Suburban, Maharashtra, 400055, India",H/E
127,19.07444236466082,72.84233563066294,"H/E Ward, Zone 3, Mumbai, Mumbai Suburban, Maharashtra, 400055, India",H/E
128,19.0567414,72.84165109999999,"Kherwadi Road, H/W Ward, Zone 3, Mumbai, Mumbai Suburban, Maharashtra, 40051, India",H/E
129,19.08701255492469,72.84541242234782,"H/E Ward, Zone 3, Mumbai, Mumbai Suburban, Maharashtra, 400055, India",H/E
130,19.0650798,72.8565769,"H/E Ward, Zone 3, Mumbai, Mumbai Suburban, Maharashtra, 400 051, India",H/E
131,19.08154070356635,72.85412494816593,"Jawaharlal Nehru Road, Vakola, H/E Ward, Zone 3, Mumbai, Mumbai Suburban, Maharashtra, 400055, India",H/E
132,19.056800000000067,72.84181944400007,"Kherwadi Road, H/W Ward, Zone 3, Mumbai, Mumbai Suburban, Maharashtra, 40051, India",H/E
133,19.13369227000004,72.85877406700007,"Shyam Nagar, K/E Ward, Zone 3, Mumbai, Mumbai Suburban, Maharashtra, 400060, India",K/E
134,19.139143697000065,72.85325870700007,"Balasaheb Thackeray Flyover, Pratap Nagar, K/E Ward, Zone 3, Mumbai, Mumbai Suburban, Maharashtra, 400060, India",K/E
135,19.14083695100004,72.86139945800005,"Shyam Nagar, K/E Ward, Zone 3, Mumbai, Mumbai Suburban, Maharashtra, 400060, India",K/E
136,19.13219749090547,72.85625580658747,"Aghadi Nagar, K/E Ward, Zone 3, Mumbai, Mumbai Suburban, Maharashtra, 400069, India",K/E
137,19.10794573436695,72.8589177997727,"Ratna Mahal, Cardinal Gracias Road, Chakala Village, K/E Ward, Zone 3, Mumbai, Mumbai Suburban, Maharashtra, 400 099, India",K/E
138,19.13351105241615,72.85791979528604,"Gufa Tekdi, K/E Ward, Zone 3, Mumbai, Mumbai Suburban, Maharashtra, 400060, India",K/E
139,19.12680647922856,72.84890382165267,"Azad Nagar, K/E Ward, Zone 3, Mumbai, Mumbai Suburban, Maharashtra, 400069, India",K/E
140,19.0912396,72.8461938,"Prabhat Colony, H/E Ward, Zone 3, Mumbai, Mumbai Suburban, Maharashtra, 48335, India",K/E
141,19.10444256955326,72.8588016868696,"M C Chagla Road, Chakala Village, K/E Ward, Zone 3, Mumbai, Mumbai Suburban, Maharashtra, 400099, India",K/E
142,19.11154079776221,72.86801623576561,"shri Ghanshamdas podhar vidyalay Rajasthani school, Mathuradas Vasanji Road (Andheri Kurla Road), Kondivita Village, K/E Ward, Zone 3, Mumbai, Mumbai Suburban, Maharashtra, 400059., India",K/E
143,19.138673022000035,72.85367576000004,"Gufa Tekdi, K/E Ward, Zone 3, Mumbai, Mumbai Suburban, Maharashtra, 400060, India",K/E
144,19.17184910000003,72.83825470000005,"Motilal Nagar II, P/S Ward, Zone 4, Mumbai, Mumbai Suburban, Maharashtra, 400062, India",P/S
145,19.16785555555556,72.83926944444444,"Motilal Nagar II, P/S Ward, Zone 4, Mumbai, Mumbai Suburban, Maharashtra, 400062, India",P/S
146,19.17811661500002,72.86212478200008,"P/N Ward, Zone 4, Mumbai, Mumbai Suburban, Maharashtra, 400097, India",P/N
147,19.18809433200005,72.82356901900005,"Janakalyan Nagar, P/N Ward, Zone 4, Mumbai, Mumbai Suburban, Maharashtra, 400095, India",P/N
148,19.18841266800007,72.84977676700004,"Rai Pada, P/N Ward, Zone 4, Mumbai, Mumbai Suburban, Maharashtra, 400097, India",P/N
149,19.18816346500006,72.82285887600005,"Janakalyan Nagar, P/N Ward, Zone 4, Mumbai, Mumbai Suburban, Maharashtra, 400095, India",P/N
150,19.190400055000055,72.85752212500006,"Rai Pada, P/N Ward, Zone 4, Mumbai, Mumbai Suburban, Maharashtra, 400097, India",P/N
151,19.187443294000047,72.86468327900008,"P/N Ward, Zone 4, Mumbai, Mumbai Suburban, Maharashtra, 400097, India",P/N
152,19.18497540800007,72.82080140400006,"Janakalyan Nagar, P/N Ward, Zone 4, Mumbai, Mumbai Suburban, Maharashtra, 400095, India",P/N
153,19.18560224500004,72.82084449000007,"Janakalyan Nagar, P/N Ward, Zone 4, Mumbai, Mumbai Suburban, Maharashtra, 400095, India",P/N
154,19.19049947700006,72.85939303400005,"Big Bazzar, Kandivali, Tanaji Nagar Road, Rai Pada, P/N Ward, Zone 4, Mumbai, Mumbai Suburban, Maharashtra, 400097, India",P/N
155,19.17825285500004,72.86223807000005,"P/N Ward, Zone 4, Mumbai, Mumbai Suburban, Maharashtra, 400097, India",P/N
156,19.18779420000004,72.82361530000003,"Janakalyan Nagar, P/N Ward, Zone 4, Mumbai, Mumbai Suburban, Maharashtra, 400095, India",P/N
157,19.188176183000053,72.85088855200007,"Rai Pada, P/N Ward, Zone 4, Mumbai, Mumbai Suburban, Maharashtra, 400097, India",P/N
158,19.189522453000052,72.86554153700007,"P/N Ward, Zone 4, Mumbai, Mumbai Suburban, Maharashtra, 400097, India",P/N
159,19.188322500000027,72.82310850000005,"Janakalyan Nagar, P/N Ward, Zone 4, Mumbai, Mumbai Suburban, Maharashtra, 400095, India",P/N
160,19.189758934000054,72.85685693800008,"Rai Pada, P/N Ward, Zone 4, Mumbai, Mumbai Suburban, Maharashtra, 400097, India",P/N
161,19.170750359000067,72.87787931800005,"Nagari Niwara Colony, P/N Ward, Zone 4, Mumbai, Mumbai Suburban, Maharashtra, 400063, India",P/N
162,19.18579610000006,72.81704633100003,"Janakalyan Nagar, P/N Ward, Zone 4, Mumbai, Mumbai Suburban, Maharashtra, 400095, India",P/N
163,19.18437903100005,72.82304687300007,"Janakalyan Nagar, P/N Ward, Zone 4, Mumbai, Mumbai Suburban, Maharashtra, 400095, India",P/N
164,19.180259400000068,72.86128000000008,"P/N Ward, Zone 4, Mumbai, Mumbai Suburban, Maharashtra, 400097, India",P/N
165,19.171587000000045,72.87878300000006,"Nagari Niwara Colony, P/N Ward, Zone 4, Mumbai, KulÄba, Mumbai Suburban, Maharashtra, 400063, India",P/N
166,19.17902222200007,72.86228055600003,"Pathanwadi Road, P/N Ward, Zone 4, Mumbai, Mumbai Suburban, Maharashtra, 400097, India",P/N
167,19.19958938600007,72.86403704100007,"R/S Ward, Zone 4, Mumbai, Mumbai Suburban, Maharashtra, 400101, India",R/S
168,19.196305040000027,72.86486190000005,"R/S Ward, Zone 4, Mumbai, Mumbai Suburban, Maharashtra, 400101, India",R/S
169,19.198057222000045,72.85995734100004,"R/S Ward, Zone 4, Mumbai, Mumbai Suburban, Maharashtra, 400101, India",R/S
170,19.203754296000056,72.83185210800008,"Charkop Village, R/S Ward, Zone 4, Mumbai, Mumbai Suburban, Maharashtra, 400067, India",R/S
171,19.203413889000046,72.83129444400004,"Charkop Village, R/S Ward, Zone 4, Mumbai, Mumbai Suburban, Maharashtra, 400067, India",R/S
172,19.06622789900007,72.87619575100007,"P Keluskar Mg, Naware Baug Jagruti Nagar, L Ward, Zone 5, Mumbai, Mumbai Suburban, Maharashtra, 400024, India",L
173,19.09563540000005,72.89471325900007,"Narayan Nagar, L Ward, Zone 5, Mumbai, Mumbai Suburban, Maharashtra, 400 072, India",L
174,19.068773239000052,72.87925966100005,"Naware Baug Jagruti Nagar, L Ward, Zone 5, Mumbai, Mumbai Suburban, Maharashtra, 400024, India",L
175,19.08654117900005,72.88280617600003,"Khimji Punja Road, Sunder Baug, L Ward, Zone 5, Mumbai, Mumbai Suburban, Maharashtra, 400070, India",L
176,19.09323004500004,72.88264976100004,"Jarimari, L Ward, Zone 5, Mumbai, Mumbai Suburban, Maharashtra, 400 072, India",L
177,19.08654117900005,72.88280617600003,"Khimji Punja Road, Sunder Baug, L Ward, Zone 5, Mumbai, Mumbai Suburban, Maharashtra, 400070, India",L
178,19.06855084885717,72.87485988071177,"LBS Marg, Hallow Pul, L Ward, Zone 5, Mumbai, Mumbai Suburban, Maharashtra, 400070, India",L
179,19.07143306273204,72.88044628080176,"Kurla Nursing Room, Pipe Line Road, Hallow Pul, L Ward, Zone 5, Mumbai, Mumbai Suburban, Maharashtra, 400070, India",L
180,19.1023426,72.88829659999999,"Anil Lunch Home, 90 Feet Road, Sunder Baug, L Ward, Zone 5, Mumbai, Mumbai Suburban, Maharashtra, 400072, India",L
181,19.060336850000056,72.88454790000003,"S G Barve Marg (C S T Road), Sindhi Society, M/W Ward, Zone 5, Mumbai, Mumbai Suburban, Maharashtra, 400024, India",L
